{

	"hack01":{

		"name":"Hack the 6ix 2018",
		"start":"2018-08-24",
		"end":"2018-08-26",
		"lat":"43.653226",
		"lng":"-79.3831843",
		"city":"Toronto",
		"state":"ON"
		},

	"hack02":{

		"name":"HackMTY",
		"start":"2018-08-25",
		"end":"2018-08-26",
		"lat":"25.6866142",
		"lng":"-100.3161126",
		"city":"Monterrey",
		"state":"MX"
		},

	"hack03":{

		"name":"ByteHacks",
		"start":"2018-09-01",
		"end":"2018-09-02",
		"lat":"40.7127753",
		"lng":"-74.0059728",
		"city":"New York",
		"state":"NY"
		},

	"hack04":{

		"name":"MedHacks",
		"start":"2018-09-07",
		"end":"2018-09-09",
		"lat":"39.2903848",
		"lng":"-76.6121893",
		"city":"Baltimore",
		"state":"MD"
		},

	"hack05":{

		"name":"MXHacks",
		"start":"2018-09-07",
		"end":"2018-09-09",
		"lat":"19.4326077",
		"lng":"-99.133208",
		"city":"Mexico City",
		"state":"MX"
		},

	"hack06":{

		"name":"PennApps",
		"start":"2018-09-07",
		"end":"2018-09-09",
		"lat":"39.9525839",
		"lng":"-75.1652215",
		"city":"Philadelphia",
		"state":"PA"
		},

	"hack07":{

		"name":"HackTheU",
		"start":"2018-09-08",
		"end":"2018-09-09",
		"lat":"40.7607793",
		"lng":"-111.8910474",
		"city":"Salt Lake City",
		"state":"UT"
		},

	"hack08":{

		"name":"HackRice 8",
		"start":"2018-09-14",
		"end":"2018-09-16",
		"lat":"29.7604267",
		"lng":"-95.3698028",
		"city":"Houston",
		"state":"TX"
		},

	"hack09":{

		"name":"Hack the North",
		"start":"2018-09-14",
		"end":"2018-09-16",
		"lat":"43.4642578",
		"lng":"-80.5204096",
		"city":"Waterloo",
		"state":"ON"
		},

	"hack10":{

		"name":"SBU Hacks",
		"start":"2018-09-14",
		"end":"2018-09-15",
		"lat":"40.9256538",
		"lng":"-73.1409429",
		"city":"Stony Brook",
		"state":"NY"
		},

	"hack11":{

		"name":"ShellHacks",
		"start":"2018-09-14",
		"end":"2018-09-16",
		"lat":"25.7616798",
		"lng":"-80.1917902",
		"city":"Miami",
		"state":"FL"
		},

	"hack12":{

		"name":"Hophacks",
		"start":"2018-09-15",
		"end":"2018-09-17",
		"lat":"39.2903848",
		"lng":"-76.6121893",
		"city":"Baltimore",
		"state":"MD"
		},

	"hack13":{

		"name":"Lumohacks",
		"start":"2018-09-15",
		"end":"2018-09-16",
		"lat":"49.2488091",
		"lng":"-122.9805104",
		"city":"Burnaby",
		"state":"BC"
		},

	"hack14":{

		"name":"BASEHacks 3.0",
		"start":"2018-09-22",
		"end":"2018-09-23",
		"lat":"37.5482697",
		"lng":"-121.9885719",
		"city":"Fremont",
		"state":"CA"
		},

	"hack15":{

		"name":"GrizzHacks",
		"start":"2018-09-22",
		"end":"2018-09-23",
		"lat":"42.680588",
		"lng":"-83.1338214",
		"city":"Rochester",
		"state":"MI"
		},

	"hack16":{

		"name":"Ram Hacks",
		"start":"2018-09-22",
		"end":"2018-09-23",
		"lat":"37.5407246",
		"lng":"-77.4360481",
		"city":"Richmond",
		"state":"VA"
		},

	"hack17":{

		"name":"Volhacks",
		"start":"2018-09-28",
		"end":"2018-09-30",
		"lat":"35.9606384",
		"lng":"-83.9207392",
		"city":"Knoxville",
		"state":"TN"
		},

	"hack18":{

		"name":"HackNY",
		"start":"2018-09-29",
		"end":"2018-09-30",
		"lat":"40.7127753",
		"lng":"-74.0059728",
		"city":"New York",
		"state":"NY"
		},

	"hack19":{

		"name":"Mining hack",
		"start":"2018-09-29",
		"end":"2018-09-30",
		"lat":"25.5428443",
		"lng":"-103.4067861",
		"city":"Torreon",
		"state":"MX"
		},

	"hack20":{

		"name":"HackGSU",
		"start":"2018-10-05",
		"end":"2018-10-07",
		"lat":"33.7489954",
		"lng":"-84.3879824",
		"city":"Atlanta",
		"state":"GA"
		},

	"hack21":{

		"name":"HackNC",
		"start":"2018-10-05",
		"end":"2018-10-07",
		"lat":"35.9131996",
		"lng":"-79.0558445",
		"city":"Chapel Hill",
		"state":"NC"
		},

	"hack22":{

		"name":"Hack This. Help Kids.",
		"start":"2018-10-05",
		"end":"2018-10-06",
		"lat":"40.4406248",
		"lng":"-79.9958864",
		"city":"Pittsburgh",
		"state":"PA"
		},

	"hack23":{

		"name":"HackPSU",
		"start":"2018-10-06",
		"end":"2018-10-07",
		"lat":"40.7933949",
		"lng":"-77.8600012",
		"city":"State College",
		"state":"PA"
		},

	"hack24":{

		"name":"HackRU",
		"start":"2018-10-06",
		"end":"2018-10-07",
		"lat":"40.4862157",
		"lng":"-74.4518188",
		"city":"New Brunswick",
		"state":"NJ"
		},

	"hack25":{

		"name":"HackUIowa",
		"start":"2018-10-06",
		"end":"2018-10-07",
		"lat":"41.6611277",
		"lng":"-91.5301683",
		"city":"Iowa City",
		"state":"IA"
		},

	"hack26":{

		"name":"HackUTA",
		"start":"2018-10-06",
		"end":"2018-10-07",
		"lat":"32.735687",
		"lng":"-97.1080656",
		"city":"Arlington",
		"state":"TX"
		},

	"hack27":{

		"name":"HAkron 3000",
		"start":"2018-10-06",
		"end":"2018-10-07",
		"lat":"41.0814447",
		"lng":"-81.5190053",
		"city":"Akron",
		"state":"OH"
		},

	"hack28":{

		"name":"HackCooper",
		"start":"2018-10-12",
		"end":"2018-10-13",
		"lat":"40.7127753",
		"lng":"-74.0059728",
		"city":"New York",
		"state":"NY"
		},

	"hack29":{

		"name":"HackUMass",
		"start":"2018-10-12",
		"end":"2018-10-14",
		"lat":"42.3732216",
		"lng":"-72.5198537",
		"city":"Amherst",
		"state":"MA"
		},

	"hack30":{

		"name":"MHacks",
		"start":"2018-10-12",
		"end":"2018-10-14",
		"lat":"42.2808256",
		"lng":"-83.7430378",
		"city":"Ann Arbor",
		"state":"MI"
		},

	"hack31":{

		"name":"PatriotHacks",
		"start":"2018-10-12",
		"end":"2018-10-14",
		"lat":"38.8462236",
		"lng":"-77.3063733",
		"city":"Fairfax",
		"state":"VA"
		},

	"hack32":{

		"name":"SD Hacks",
		"start":"2018-10-12",
		"end":"2018-10-14",
		"lat":"32.8328112",
		"lng":"-117.2712717",
		"city":"La Jolla",
		"state":"CA"
		},

	"hack33":{

		"name":"TigerHacks",
		"start":"2018-10-12",
		"end":"2018-10-14",
		"lat":"38.9517053",
		"lng":"-92.3340724",
		"city":"Columbia",
		"state":"MO"
		},

	"hack34":{

		"name":"EastHacks",
		"start":"2018-10-13",
		"end":"2018-10-14",
		"lat":"39.926813",
		"lng":"-75.0246312",
		"city":"Cherry Hill",
		"state":"NJ"
		},

	"hack35":{

		"name":"HackDuke",
		"start":"2018-10-13",
		"end":"2018-10-14",
		"lat":"35.9940329",
		"lng":"-78.898619",
		"city":"Durham",
		"state":"NC"
		},

	"hack36":{

		"name":"BigRed//Hacks",
		"start":"2018-10-19",
		"end":"2018-10-21",
		"lat":"42.4439614",
		"lng":"-76.5018807",
		"city":"Ithaca",
		"state":"NY"
		},

	"hack37":{

		"name":"BoilerMake",
		"start":"2018-10-19",
		"end":"2018-10-21",
		"lat":"40.4258686",
		"lng":"-86.9080655",
		"city":"West Lafayette",
		"state":"IN"
		},

	"hack38":{

		"name":"HackGT",
		"start":"2018-10-19",
		"end":"2018-10-21",
		"lat":"33.7489954",
		"lng":"-84.3879824",
		"city":"Atlanta",
		"state":"GA"
		},

	"hack39":{

		"name":"HackHarvard",
		"start":"2018-10-19",
		"end":"2018-10-21",
		"lat":"42.3736158",
		"lng":"-71.1097335",
		"city":"Cambridge",
		"state":"MA"
		},

	"hack40":{

		"name":"HackISU",
		"start":"2018-10-19",
		"end":"2018-10-21",
		"lat":"42.0307812",
		"lng":"-93.6319131",
		"city":"Ames",
		"state":"IA"
		},

	"hack41":{

		"name":"Hack KState",
		"start":"2018-10-19",
		"end":"2018-10-21",
		"lat":"39.1836082",
		"lng":"-96.5716694",
		"city":"Manhattan",
		"state":"KS"
		},

	"hack42":{

		"name":"Kent Hack Enough",
		"start":"2018-10-19",
		"end":"2018-10-21",
		"lat":"41.1536674",
		"lng":"-81.3578859",
		"city":"Kent",
		"state":"OH"
		},

	"hack43":{

		"name":"DemonHacks",
		"start":"2018-10-20",
		"end":"2018-10-21",
		"lat":"41.8781136",
		"lng":"-87.6297982",
		"city":"Chicago",
		"state":"IL"
		},

	"hack44":{

		"name":"DubHacks",
		"start":"2018-10-20",
		"end":"2018-10-21",
		"lat":"47.6062095",
		"lng":"-122.3320708",
		"city":"Seattle",
		"state":"WA"
		},

	"hack45":{

		"name":"HackTX",
		"start":"2018-10-20",
		"end":"2018-10-21",
		"lat":"30.267153",
		"lng":"-97.7430608",
		"city":"Austin",
		"state":"TX"
		},

	"hack46":{

		"name":"HackUMBC",
		"start":"2018-10-20",
		"end":"2018-10-21",
		"lat":"39.2903848",
		"lng":"-76.6121893",
		"city":"Baltimore",
		"state":"MD"
		},

	"hack47":{

		"name":"HyphenHacks",
		"start":"2018-10-20",
		"end":"2018-10-21",
		"lat":"37.7749295",
		"lng":"-122.4194155",
		"city":"San Francisco",
		"state":"CA"
		},

	"hack48":{

		"name":"Power the Future",
		"start":"2018-10-20",
		"end":"2018-10-21",
		"lat":"37.5407246",
		"lng":"-77.4360481",
		"city":"Richmond",
		"state":"VA"
		},

	"hack49":{

		"name":"Cal Hacks 5.0",
		"start":"2018-11-02",
		"end":"2018-11-04",
		"lat":"37.8715926",
		"lng":"-122.272747",
		"city":"Berkeley",
		"state":"CA"
		},

	"hack50":{

		"name":"Electric City Hacks",
		"start":"2018-11-02",
		"end":"2018-11-04",
		"lat":"44.309058",
		"lng":"-78.319747",
		"city":"Peterborough",
		"state":"ON"
		},

	"hack51":{

		"name":"VandyHacks",
		"start":"2018-11-02",
		"end":"2018-11-04",
		"lat":"36.1626638",
		"lng":"-86.7816016",
		"city":"Nashville",
		"state":"TN"
		},

	"hack52":{

		"name":"WHACK (Wellesley Hacks)",
		"start":"2018-11-02",
		"end":"2018-11-04",
		"lat":"42.296797",
		"lng":"-71.2923877",
		"city":"Wellesley",
		"state":"MA"
		},

	"hack53":{

		"name":"CodeRED Discovery",
		"start":"2018-11-03",
		"end":"2018-11-04",
		"lat":"29.7604267",
		"lng":"-95.3698028",
		"city":"Houston",
		"state":"TX"
		},

	"hack54":{

		"name":"HackBI II",
		"start":"2018-11-03",
		"end":"2018-11-04",
		"lat":"38.8048355",
		"lng":"-77.0469214",
		"city":"Alexandria",
		"state":"VA"
		},

	"hack55":{

		"name":"HackNJIT",
		"start":"2018-11-03",
		"end":"2018-11-04",
		"lat":"40.735657",
		"lng":"-74.1723667",
		"city":"Newark",
		"state":"NJ"
		},

	"hack56":{

		"name":"hackPHS",
		"start":"2018-11-03",
		"end":"2018-11-04",
		"lat":"40.3572976",
		"lng":"-74.6672226",
		"city":"Princeton",
		"state":"NJ"
		},

	"hack57":{

		"name":"HealthHacks",
		"start":"2018-11-03",
		"end":"2018-11-04",
		"lat":"37.5407246",
		"lng":"-77.4360481",
		"city":"Richmond",
		"state":"VA"
		},

	"hack58":{

		"name":"UB Hacking",
		"start":"2018-11-03",
		"end":"2018-11-04",
		"lat":"42.9790067",
		"lng":"-78.792272",
		"city":"Amherst",
		"state":"NY"
		},

	"hack59":{

		"name":"HackPrinceton",
		"start":"2018-11-09",
		"end":"2018-11-11",
		"lat":"40.3572976",
		"lng":"-74.6672226",
		"city":"Princeton",
		"state":"NJ"
		},

	"hack60":{

		"name":"sunhacks",
		"start":"2018-11-09",
		"end":"2018-11-11",
		"lat":"33.4255104",
		"lng":"-111.9400054",
		"city":"Phoenix / Tempe",
		"state":"AZ"
		},

	"hack61":{

		"name":"BostonHacks",
		"start":"2018-11-10",
		"end":"2018-11-11",
		"lat":"42.3600825",
		"lng":"-71.0588801",
		"city":"Boston",
		"state":"MA"
		},

	"hack62":{

		"name":"Codestellation",
		"start":"2018-11-10",
		"end":"2018-11-11",
		"lat":"42.3764852",
		"lng":"-71.2356113",
		"city":"Waltham",
		"state":"MA"
		},

	"hack63":{

		"name":"HackMCST",
		"start":"2018-11-10",
		"end":"2018-11-11",
		"lat":"40.8923212",
		"lng":"-74.4773775",
		"city":"Denville",
		"state":"NJ"
		},

	"hack64":{

		"name":"HackWITUs",
		"start":"2018-11-10",
		"end":"2018-11-11",
		"lat":"42.3600825",
		"lng":"-71.0588801",
		"city":"Boston",
		"state":"MA"
		},

	"hack65":{

		"name":"MadHacks",
		"start":"2018-11-10",
		"end":"2018-11-11",
		"lat":"43.0730517",
		"lng":"-89.4012302",
		"city":"Madison",
		"state":"WI"
		},

	"hack66":{

		"name":"Technica",
		"start":"2018-11-10",
		"end":"2018-11-11",
		"lat":"38.9896967",
		"lng":"-76.93776",
		"city":"College Park",
		"state":"MD"
		},

	"hack67":{

		"name":"HackUSU",
		"start":"2018-11-16",
		"end":"2018-11-17",
		"lat":"41.7369803",
		"lng":"-111.8338359",
		"city":"Logan",
		"state":"UT"
		},

	"hack68":{

		"name":"Lehman Hack50",
		"start":"2018-11-16",
		"end":"2018-11-17",
		"lat":"40.8447819",
		"lng":"-73.8648268",
		"city":"Bronx",
		"state":"NY"
		},

	"hack69":{

		"name":"BlocHacks",
		"start":"2018-11-17",
		"end":"2018-11-18",
		"lat":"45.5016889",
		"lng":"-73.567256",
		"city":"Montreal",
		"state":"QC"
		},

	"hack70":{

		"name":"SacHacks",
		"start":"2018-11-17",
		"end":"2018-11-18",
		"lat":"38.5815719",
		"lng":"-121.4943996",
		"city":"Sacramento",
		"state":"CA"
		},

	"hack71":{

		"name":"Hack Western V",
		"start":"2018-11-23",
		"end":"2018-11-25",
		"lat":"42.9849233",
		"lng":"-81.2452768",
		"city":"London",
		"state":"ON"
		},

	"hack72":{

		"name":"YHack",
		"start":"2018-11-30",
		"end":"2018-12-02",
		"lat":"41.308274",
		"lng":"-72.9278835",
		"city":"New Haven",
		"state":"CT"
		},

	"hack73":{

		"name":"Urban Hacks",
		"start":"2018-12-08",
		"end":"2018-12-09",
		"lat":"43.2557206",
		"lng":"-79.8711024",
		"city":"Hamilton",
		"state":"ON"
		}
}